City_ID,City,Lat,Lng,Max Temp,Humidity,Cloudiness,Wind Speed,Country,Date
0,port-aux-francais,-49.35,70.2167,5.45,84,96,16.59,TF,1686501265
1,iqaluit,63.7506,-68.5145,1.85,80,100,7.2,CA,1686501266
2,dudinka,69.4058,86.1778,10.9,50,71,7.3,RU,1686501266
3,grytviken,-54.2811,-36.5092,-1.53,87,97,5.39,GS,1686501266
4,yinzhu,35.8786,119.9753,19.79,72,87,1.54,CN,1686501266
5,pisco,-13.7,-76.2167,22.03,64,100,3.09,PE,1686501212
6,oruro,-17.9833,-67.15,13.46,13,2,4.17,BO,1686501266
7,nemuro,43.3236,145.575,11.45,98,100,4.13,JP,1686501266
8,bilibino,68.0546,166.4372,15.07,59,100,1.98,RU,1686501266
9,hithadhoo,-0.6,73.0833,28.68,72,75,2.82,MV,1686501267
10,winslow,35.0242,-110.6974,24.1,15,0,3.6,US,1686501267
11,rabaul,-4.1967,152.1721,26.34,81,90,1.58,PG,1686501267
12,lebu,-37.6167,-73.65,9.32,66,32,8.9,CL,1686501133
13,adamstown,-25.066,-130.1015,20.71,64,77,6.85,PN,1686501267
14,puerto ayora,-0.7393,-90.3518,31.98,84,100,4.92,EC,1686501089
15,egilsstadir,65.2653,-14.3948,19.95,26,0,5.14,IS,1686501268
16,les avirons,-21.2418,55.3394,22.05,73,75,2.57,RE,1686501268
17,bredasdorp,-34.5322,20.0403,13.85,68,100,3.66,ZA,1686501268
18,toliara,-23.35,43.6667,21.64,82,0,4.38,MG,1686501268
19,waitangi,-43.9535,-176.5597,10.46,78,100,6.38,NZ,1686501268
20,awjilah,29.1081,21.2869,34.67,23,0,4.33,LY,1686501268
21,ilulissat,69.2167,-51.1,0.01,93,100,2.06,GL,1686501268
22,wailua homesteads,22.0669,-159.378,23.44,88,75,5.66,US,1686501269
23,kodiak,57.79,-152.4072,6.73,87,75,7.72,US,1686501229
24,hawaiian paradise park,19.5933,-154.9731,21.69,91,75,2.57,US,1686501269
25,georgetown,5.4112,100.3354,29.97,80,20,2.06,MY,1686501269
26,aquin,18.2833,-73.4,29.84,67,18,4.43,HT,1686501269
27,yellowknife,62.456,-114.3525,8.29,87,100,1.03,CA,1686501003
28,cabo san lucas,22.8909,-109.9124,32.56,28,0,0.0,MX,1686501170
29,remire-montjoly,4.9167,-52.2667,31.02,66,75,6.17,GF,1686501270
30,mogadishu,2.0371,45.3438,26.66,77,44,8.95,SO,1686501270
31,invercargill,-46.4,168.35,6.04,91,28,3.61,NZ,1686501072
32,keflavik,64.0049,-22.5624,9.95,71,75,8.75,IS,1686500726
33,broome,42.2506,-75.833,27.05,47,0,2.57,US,1686501270
34,port alfred,-33.5906,26.891,18.77,55,0,4.1,ZA,1686501271
35,sotnikovskoye,45.0039,43.7772,23.17,66,81,3.43,RU,1686501271
36,blackmans bay,-43.0167,147.3167,9.29,86,86,2.8,AU,1686501271
37,eydhafushi,5.1033,73.0708,28.5,80,91,6.11,MV,1686501271
38,anadyr,64.75,177.4833,4.28,93,100,3.0,RU,1686501271
39,badger,64.8,-147.5333,15.28,45,0,4.12,US,1686501271
40,jamestown,42.097,-79.2353,25.85,46,0,3.6,US,1686501182
41,grand falls-windsor,48.9332,-55.6649,6.39,94,100,2.68,CA,1686501272
42,puerto natales,-51.7236,-72.4875,4.25,70,40,12.86,CL,1686501272
43,enewetak,11.3474,162.3373,27.89,80,100,6.88,MH,1686501272
44,tolanaro,-25.0319,46.9987,21.04,83,20,0.0,MG,1686501272
45,saskatoon,52.1168,-106.6345,21.99,49,20,5.14,CA,1686500654
46,tiksi,71.6872,128.8694,-0.63,98,100,6.54,RU,1686501273
47,bethel,41.3712,-73.414,29.01,55,0,2.57,US,1686501273
48,ushuaia,-54.8,-68.3,-0.19,93,100,15.95,AR,1686501273
49,lihue,21.9789,-159.3672,23.77,83,75,5.66,US,1686501273
50,muli,2.9167,73.5667,29.05,75,39,4.77,MV,1686501273
51,al mijlad,11.0333,27.7333,34.24,34,100,1.91,SD,1686501273
52,brisas de zicatela,15.8369,-97.0419,32.29,66,40,3.6,MX,1686501273
53,lospalos,-8.5186,127.0025,22.08,76,100,3.51,TL,1686501273
54,edinburgh of the seven seas,-37.0676,-12.3116,16.04,85,53,11.12,SH,1686501274
55,longyearbyen,78.2186,15.6401,5.91,65,75,9.26,SJ,1686501274
56,kangding,30.0513,101.9603,10.94,93,100,0.15,CN,1686501274
57,comandante fontana,-25.3345,-59.6821,13.66,54,100,4.39,AR,1686501274
58,pierre,44.3683,-100.351,18.51,70,75,4.12,US,1686500959
59,marsh harbour,26.5412,-77.0636,28.82,65,3,3.36,BS,1686501274
60,hedaru,-4.5,37.9,21.64,63,37,2.58,TZ,1686501274
61,sitka,57.0531,-135.33,10.94,76,75,1.54,US,1686501274
62,navirai,-23.065,-54.1906,26.43,53,57,3.33,BR,1686501274
63,papatowai,-46.5619,169.4708,8.12,90,13,4.02,NZ,1686501275
64,conception bay south,47.4999,-52.9981,8.53,96,100,6.4,CA,1686501203
65,tafuna,-14.3358,-170.72,27.97,89,40,5.66,AS,1686501275
66,port mathurin,-19.6833,63.4167,25.1,71,17,9.01,MU,1686501275
67,adrar,20.5022,-10.0711,39.81,10,3,7.29,MR,1686501275
68,piton saint-leu,-21.2196,55.3151,22.06,73,75,2.57,RE,1686501275
69,coahuayana de hidalgo,18.7,-103.6583,32.93,48,28,2.49,MX,1686501275
70,rongelap,11.1635,166.8941,27.56,79,98,7.56,MH,1686501275
71,fale old settlement,-9.3852,-171.2468,28.56,77,97,6.23,TK,1686501276
72,klyuchi,52.2667,79.1667,16.09,55,0,2.95,RU,1686501276
73,alofi,-19.0595,-169.9187,22.94,94,87,3.09,NU,1686501276
74,quellon,-43.1167,-73.6167,9.14,81,40,5.66,CL,1686501276
75,tananger,58.9333,5.6,24.99,25,0,7.72,NO,1686501276
76,novodvinsk,64.4165,40.8122,11.69,68,99,1.96,RU,1686501276
77,vadso,70.0744,29.7487,22.49,47,0,6.17,NO,1686501276
78,gadzhiyevo,69.2551,33.3362,17.03,47,84,2.4,RU,1686501276
79,manta,-0.95,-80.7333,28.88,89,75,7.6,EC,1686501277
80,margaret river,-33.95,115.0667,13.93,55,96,7.04,AU,1686501277
81,albany,42.6001,-73.9662,27.01,52,100,0.45,US,1686501277
82,nzerekore,7.7562,-8.8179,27.36,70,74,1.37,GN,1686501277
83,les sables-d'olonne,46.6667,-1.8333,26.44,63,87,4.94,FR,1686500995
84,kasongo-lunda,-6.4667,16.8167,25.56,71,96,0.49,CD,1686501277
85,kulhudhuffushi,6.6221,73.07,28.72,80,96,7.12,MV,1686501277
86,monopoli,40.9559,17.2896,24.57,74,31,3.33,IT,1686501278
87,anar darah,32.7587,61.654,30.82,16,0,9.73,AF,1686501278
88,peace river,56.2501,-117.286,20.17,86,75,1.03,CA,1686501067
89,montepuez,-13.1256,38.9997,21.08,40,21,2.16,MZ,1686501278
90,tortoli,39.9256,9.6572,24.9,94,20,1.54,IT,1686501278
91,minas de marcona,-15.2119,-75.1103,17.1,61,55,7.42,PE,1686501278
92,west island,-12.1568,96.8225,26.99,74,75,11.15,CC,1686501278
93,tura,25.5198,90.2201,24.0,94,16,2.69,IN,1686501280
94,thunder bay,48.4001,-89.3168,15.99,41,40,5.14,CA,1686500996
95,olonkinbyen,70.9221,-8.7187,1.95,94,100,8.26,SJ,1686501281
96,turbat,26.0023,63.044,31.73,60,32,4.64,PK,1686500943
97,papao,-17.75,-149.55,21.82,74,56,8.98,PF,1686501281
98,udachny,66.4167,112.4,0.25,100,100,7.7,RU,1686501281
99,paris,48.8534,2.3488,27.32,70,40,5.66,FR,1686500608
100,george town,5.4112,100.3354,29.97,80,20,2.06,MY,1686501013
101,ribeira grande,38.5167,-28.7,21.22,73,40,4.63,PT,1686501281
102,flying fish cove,-10.4217,105.6791,24.82,94,75,4.63,CX,1686501281
103,kimbe,-5.5502,150.1429,24.55,93,99,0.92,PG,1686501281
104,palmer,42.1584,-72.3287,27.57,46,20,1.54,US,1686501281
105,kondoa,-4.9,35.7833,19.04,42,61,1.57,TZ,1686501282
106,mount isa,-20.7333,139.5,14.87,55,2,2.57,AU,1686501282
107,vanimo,-2.6741,141.3028,25.71,90,75,2.65,PG,1686501282
108,zachary,30.6485,-91.1565,32.08,62,40,4.12,US,1686501282
109,marechal deodoro,-9.7103,-35.895,28.67,69,14,4.03,BR,1686501282
110,petropavlovsk-kamchatsky,53.0452,158.6483,7.33,71,0,4.0,RU,1686501039
111,noumea,-22.2763,166.4572,20.0,99,10,3.4,NC,1686500812
112,tarko-sale,64.9225,77.785,10.87,85,100,3.04,RU,1686501282
113,aasiaat,68.7098,-52.8699,1.21,95,100,4.7,GL,1686501282
114,saipan,15.1355,145.701,27.39,100,20,4.63,MP,1686501283
115,howrah,22.5892,88.3103,26.0,89,75,4.12,IN,1686501283
116,brookings,44.3114,-96.7984,17.27,57,0,5.66,US,1686501283
117,linfen,36.0889,111.5189,23.1,47,2,2.69,CN,1686501283
118,afaahiti,-17.75,-149.2833,20.93,74,76,8.67,PF,1686501283
119,qaqortoq,60.7167,-46.0333,6.3,66,6,3.06,GL,1686501283
120,neryungri,56.6709,124.6491,15.35,63,93,1.14,RU,1686501283
121,maumere,-8.6199,122.2111,25.32,77,100,2.21,ID,1686501283
122,college,64.8569,-147.8028,15.32,47,75,4.12,US,1686501284
123,punta arenas,-53.15,-70.9167,4.06,65,20,9.77,CL,1686501115
124,bima,-8.4667,118.7167,23.3,95,78,1.63,ID,1686501284
125,sao sepe,-30.1606,-53.5653,12.77,58,99,2.6,BR,1686501284
126,assab,13.0092,42.7394,31.59,75,98,10.01,ER,1686501284
127,sarkand,45.41,79.9186,17.12,76,31,1.29,KZ,1686501284
128,tralee,52.2704,-9.7026,21.14,73,75,4.12,IE,1686501284
129,port douglas,-16.4833,145.4667,20.99,84,40,2.57,AU,1686501284
130,villa bruzual,9.3328,-69.1208,30.09,69,30,1.3,VE,1686501285
131,hamilton,39.1834,-84.5333,20.12,94,100,0.89,US,1686500920
132,isangel,-19.55,169.2667,20.63,75,26,4.78,VU,1686501285
133,mata-utu,-13.2816,-176.1745,28.1,80,13,8.55,WF,1686501285
134,farafangana,-22.8167,47.8333,21.79,86,0,1.92,MG,1686501285
135,san andres,12.5847,-81.7006,32.01,70,20,2.57,CO,1686501285
136,polyarnyy,69.1989,33.4478,16.68,48,83,2.2,RU,1686501285
137,talnakh,69.4865,88.3972,10.67,69,66,4.37,RU,1686501286
138,zhezqazghan,47.7833,67.7667,22.97,22,37,5.53,KZ,1686501286
139,floro,61.5996,5.0328,24.04,48,98,4.63,NO,1686501286
140,cozumel,20.5083,-86.9458,32.19,77,40,4.63,MX,1686501263
141,magadan,59.5667,150.8,5.82,93,89,1.34,RU,1686501286
142,smirnovo,54.5125,69.4222,15.55,91,64,3.69,KZ,1686501286
143,thompson,55.7435,-97.8558,22.09,46,75,4.63,CA,1686501286
144,yuzhno-kurilsk,44.0306,145.8556,11.03,99,100,3.7,RU,1686501286
145,puerto cabezas,14.0351,-83.3888,30.98,79,40,2.06,NI,1686501286
146,mahanoro,-19.9,48.8,21.0,86,0,0.76,MG,1686501287
147,sint michiel liber,12.15,-68.9833,31.9,58,40,8.23,CW,1686501287
148,atafu village,-8.5421,-172.5159,28.67,76,100,7.02,TK,1686501287
149,al burayqah,30.4062,19.5739,26.42,60,17,6.73,LY,1686501287
150,richards bay,-28.783,32.0377,18.75,82,0,4.38,ZA,1686501287
151,ndele,8.4109,20.6473,26.22,72,50,1.69,CF,1686501287
152,kailua-kona,19.6406,-155.9956,22.98,93,75,4.12,US,1686501287
153,waat,51.1454,6.4958,30.68,40,0,4.12,DE,1686501287
154,ambon,-3.6954,128.1814,28.08,42,40,2.57,ID,1686501198
155,farsan,32.2569,50.561,24.02,30,0,1.74,IR,1686501288
156,kostomuksha,64.571,30.5767,18.83,46,87,3.79,RU,1686501288
157,whitehorse,60.7161,-135.0538,10.61,53,75,6.17,CA,1686500581
158,conceicao da barra,-18.5933,-39.7322,27.53,62,20,4.9,BR,1686501288
159,avarua,-21.2078,-159.775,20.03,100,0,2.06,CK,1686501288
160,mount pearl,47.5166,-52.7813,8.19,93,100,3.6,CA,1686501003
161,bayside,40.8424,-124.0637,13.27,92,100,0.0,US,1686501289
162,tekkali,18.6167,84.2333,31.91,53,57,3.15,IN,1686501289
163,asekeyevo,53.5742,52.7972,13.23,60,100,4.04,RU,1686501289
164,taro,-8.3862,115.28,23.0,97,53,0.37,ID,1686501289
165,tazacorte,28.629,-17.9293,24.54,81,40,2.68,ES,1686501289
166,cascais,38.6979,-9.4215,24.92,78,20,5.81,PT,1686501289
167,mili,6.0815,171.735,27.81,80,100,7.97,MH,1686501289
168,nar'yan-mar,67.6713,53.087,3.37,62,95,5.34,RU,1686501196
169,bayville,40.9106,-73.5621,29.03,59,100,0.45,US,1686501289
170,anaconda,46.1285,-112.9423,17.55,56,100,1.5,US,1686501290
171,agri,39.6667,43.1667,17.63,77,40,3.09,TR,1686501290
172,cruzeiro do sul,-29.5128,-51.9853,11.96,92,100,1.11,BR,1686501290
173,bodo,67.28,14.405,10.02,96,100,10.29,NO,1686501290
174,alaghsas,17.0187,8.0168,39.94,31,40,1.54,NE,1686501290
175,conduaga,8.862,117.4893,26.67,85,94,2.63,PH,1686501290
176,popondetta,-8.7537,148.2534,22.72,96,100,1.26,PG,1686501290
177,zelenogorskiy,55.0333,87.0,10.84,65,0,2.23,RU,1686501290
178,gebeit,21.0667,36.3167,36.47,15,58,5.05,SD,1686501291
179,notodden,59.5594,9.2585,23.17,37,22,1.34,NO,1686501291
180,sa'dah,16.9402,43.7639,23.66,50,100,5.64,YE,1686501291
181,new norfolk,-42.7826,147.0587,9.95,83,88,0.89,AU,1686501291
182,ipora,-16.4419,-51.1178,32.3,28,5,1.15,BR,1686501291
183,keelung,25.1283,121.7419,26.08,93,95,3.96,TW,1686501107
184,labytnangi,66.6572,66.4183,4.47,88,100,6.22,RU,1686501291
185,kampong speu,11.5,104.3333,26.55,82,100,1.99,KH,1686501291
186,haiku-pauwela,20.9219,-156.3051,23.91,79,0,5.14,US,1686501292
187,vorgashor,67.5833,63.95,2.45,75,100,9.8,RU,1686501292
188,prey veng,11.4868,105.3253,27.39,74,82,3.92,KH,1686501292
189,port-vila,-17.7338,168.3219,19.78,94,75,0.51,VU,1686501292
190,kirakira,-10.4544,161.9205,26.33,86,94,3.34,SB,1686501292
191,bikenibeu village,1.3673,173.1241,26.98,89,75,0.51,KI,1686501292
192,nova sintra,14.8667,-24.7167,22.56,81,43,7.24,CV,1686501292
193,riosucio,5.4216,-75.7032,25.23,48,98,0.88,CO,1686501292
194,kapa'a,22.0752,-159.319,24.18,88,75,5.66,US,1686501293
195,la junta,37.985,-103.5438,21.21,62,20,2.57,US,1686501293
196,alta,69.9689,23.2717,19.59,45,75,6.69,NO,1686501293
197,alpena,45.0617,-83.4327,12.18,82,100,4.63,US,1686501230
198,luang namtha,20.9497,101.4011,22.79,99,99,0.51,LA,1686501293
199,hermanus,-34.4187,19.2345,17.11,85,100,8.51,ZA,1686501293
200,mogocha,53.7333,119.7667,13.88,67,65,0.98,RU,1686501293
201,san patricio,28.017,-97.5169,33.82,40,0,5.32,US,1686501293
202,dakhla,23.6848,-15.958,25.01,69,0,9.77,EH,1686501294
203,ilha de mocambique,-15.0342,40.7358,25.91,67,0,6.26,MZ,1686501294
204,ancud,-41.8697,-73.8203,7.17,80,93,0.95,CL,1686501294
205,izberbash,42.5696,47.8645,24.03,80,96,1.5,RU,1686501294
206,voznesenskaya,44.5527,41.0318,18.32,89,98,2.14,RU,1686501294
207,onega,63.9061,38.1404,13.9,57,98,2.09,RU,1686501294
208,stanley,54.868,-1.6985,24.3,65,0,3.09,GB,1686501294
209,mount gambier,-37.8333,140.7667,8.04,79,31,3.78,AU,1686501049
210,ixtapa,20.7,-105.2,31.24,60,17,1.34,MX,1686501295
211,pallippatti,11.9333,78.4167,28.07,63,92,2.94,IN,1686501295
212,ulanhot,46.0833,122.0833,15.2,88,100,4.53,CN,1686501146
213,poso,-1.3959,120.7524,25.7,79,100,2.67,ID,1686501295
214,alexandria,31.2156,29.9553,24.98,61,20,5.66,EG,1686501214
215,utrik,11.2278,169.8474,27.57,82,93,8.34,MH,1686501295
216,pukchil-lodongjagu,40.2019,125.7483,12.87,90,15,1.93,KP,1686501295
217,galle,6.0367,80.217,27.35,86,96,4.92,LK,1686501295
218,revda,56.801,59.9303,7.06,63,42,2.01,RU,1686501295
219,iquitos,-3.7481,-73.2472,30.02,84,75,1.54,PE,1686501270
220,blenheim,-41.516,173.9528,7.06,61,96,2.46,NZ,1686501157
221,vrede,-27.4257,29.1659,8.52,25,0,1.91,ZA,1686501296
222,klaksvik,62.2266,-6.589,10.51,72,86,1.58,FO,1686501296
223,bubaque,11.2833,-15.8333,27.86,80,80,4.53,GW,1686501296
224,la passe,45.5549,-0.8967,29.13,61,68,5.33,FR,1686501296
225,arraial do cabo,-22.9661,-42.0278,30.98,45,0,1.54,BR,1686501296
226,port elizabeth,-33.918,25.5701,15.17,89,0,3.09,ZA,1686501296
227,slave lake,55.2834,-114.769,17.99,77,20,1.54,CA,1686501297
228,port lincoln,-34.7333,135.8667,13.76,56,1,8.56,AU,1686501297
229,upata,8.0086,-62.3989,30.11,50,65,2.49,VE,1686501297
230,mananara,-16.1667,49.7667,21.0,93,3,1.56,MG,1686501297
231,tangalle,6.024,80.7911,26.79,85,79,5.28,LK,1686501297
232,tazovsky,67.4667,78.7,8.64,95,100,5.26,RU,1686501136
233,sandpoint,48.2766,-116.5533,21.59,72,0,0.89,US,1686501130
234,mercedes,-34.6515,-59.4307,12.19,38,0,5.03,AR,1686501297
235,st. john's,47.5649,-52.7093,8.66,92,100,3.6,CA,1686501152
236,beipiao,41.7919,120.7792,15.94,54,83,1.93,CN,1686501298
237,susuman,62.7833,148.1667,11.95,59,53,1.82,RU,1686501298
238,bardai,11.65,7.2333,30.33,47,78,1.74,NG,1686501298
239,humberto de campos,-2.5983,-43.4611,30.84,61,20,3.6,BR,1686501298
240,fortuna,40.5982,-124.1573,13.14,97,100,2.06,US,1686501037
241,antsiranana,-12.2787,49.2917,23.48,83,30,4.05,MG,1686501298
242,inarajan village,13.2736,144.7484,27.54,97,98,6.59,GU,1686501298
243,tamanrasset,22.785,5.5228,27.95,30,40,9.77,DZ,1686501298
244,erzincan,39.75,39.5,24.61,61,75,1.03,TR,1686501299
245,gandajika,-6.75,23.95,26.35,32,48,1.82,CD,1686501299
246,puerto carreno,6.189,-67.4859,29.99,74,40,2.57,CO,1686501299
247,qamdo,31.1667,97.2333,3.66,88,100,1.98,CN,1686501299
248,happy valley-goose bay,53.3168,-60.3315,15.17,63,40,6.69,CA,1686501299
249,petauke,-14.2426,31.3253,20.16,31,7,3.16,ZM,1686501299
250,north battleford,52.7834,-108.2847,24.05,35,0,4.12,CA,1686501299
251,hasaki,35.7333,140.8333,20.22,97,100,3.37,JP,1686501299
252,malango,-2.9627,119.9001,19.96,98,100,0.49,ID,1686501300
253,karkira,36.9292,6.5856,24.48,63,76,1.39,DZ,1686501300
254,kruisfontein,-34.0033,24.7314,13.27,77,1,1.11,ZA,1686501300
255,waycross,31.2136,-82.354,32.21,65,75,2.06,US,1686501261
256,vel'sk,61.0701,42.0983,11.85,59,84,0.66,RU,1686501300
257,saint-francois,46.4154,3.9054,26.69,50,40,4.63,FR,1686501300
258,cox's bazar,21.4532,91.9798,26.43,89,22,4.91,BD,1686501301
259,vozhega,60.4725,40.2213,12.18,59,68,0.43,RU,1686501301
260,horta,38.5333,-28.6333,20.8,78,40,4.63,PT,1686501301
261,glace bay,46.1969,-59.957,18.36,83,100,7.2,CA,1686501274
262,santa cruz,-17.8,-63.1667,16.03,94,100,7.2,BO,1686500861
263,weno,7.4515,151.8468,27.97,83,75,2.06,FM,1686501302
264,iskateley,67.6803,53.1512,3.31,62,96,5.39,RU,1686501303
265,russkiy kameshkir,52.8589,46.0892,12.42,55,100,7.98,RU,1686501303
266,kudat,6.8837,116.8477,27.96,89,20,1.54,MY,1686501303
267,debre werk',10.6667,38.1667,16.51,61,97,2.31,ET,1686501303
268,dunedin,-45.8742,170.5036,7.67,71,85,1.34,NZ,1686500795
269,crane,31.3974,-102.3501,33.65,26,0,3.67,US,1686501304
270,rathdrum,47.8137,-116.892,22.08,71,0,0.0,US,1686501124
271,aykhal,66.0,111.5,0.26,98,100,8.28,RU,1686501015
272,dawei,14.0833,98.2,24.92,93,100,1.43,MM,1686501304
273,margarita belen,-27.2616,-58.9722,16.14,38,100,4.76,AR,1686501304
274,ust-nera,64.5667,143.2,14.54,63,81,4.01,RU,1686501305
275,celestun,20.8667,-90.4,32.81,57,18,3.91,MX,1686501305
276,hinton,53.4001,-117.5857,16.4,79,89,1.72,CA,1686501305
277,altai,46.3722,96.2583,19.04,28,1,2.99,MN,1686501306
278,kharp,66.8014,65.8081,3.27,93,100,6.07,RU,1686501306
279,jining,35.405,116.5814,21.71,65,100,5.89,CN,1686501306
280,newman,37.3138,-121.0208,20.03,37,57,1.58,US,1686501307
281,monte carmelo,-18.7247,-47.4986,27.66,31,1,2.42,BR,1686501307
282,ulladulla,-35.35,150.4667,8.61,75,0,1.99,AU,1686501307
283,dzhalagash,45.0833,64.6667,27.82,15,5,7.14,KZ,1686501307
284,hotan,37.0997,79.9269,29.29,11,61,2.56,CN,1686501307
285,caleta de carquin,-11.0925,-77.6267,22.95,68,55,4.6,PE,1686501308
286,namsos,64.4662,11.4957,13.03,94,75,1.54,NO,1686501308
287,mozarlandia,-14.7447,-50.5706,34.63,28,0,1.6,BR,1686501308
288,bobrovytsya,50.75,31.3833,10.49,78,100,7.63,UA,1686501308
289,n'djamena,12.1067,15.0444,25.98,89,20,4.12,TD,1686501309
290,ubaitaba,-14.3125,-39.3233,28.57,53,62,2.4,BR,1686501309
291,san antonio de pale,-1.4014,5.6325,25.48,81,100,4.0,GQ,1686501309
292,yarmouth,41.7057,-70.2286,26.75,55,0,3.6,US,1686501309
293,langepas,61.2544,75.2124,9.75,73,100,5.32,RU,1686501309
294,petrolia,42.8668,-82.1498,17.12,88,20,4.63,CA,1686501310
295,ithaca,42.4406,-76.4966,28.17,45,0,1.54,US,1686501310
296,pacific grove,36.6177,-121.9166,14.68,90,100,3.6,US,1686501310
297,fuyu,45.1833,124.8167,14.11,88,74,1.65,CN,1686501310
298,corupa,-26.4253,-49.2431,28.59,46,24,0.44,BR,1686501311
299,inhambane,-23.865,35.3833,22.99,73,20,2.06,MZ,1686501311
300,kirensk,57.7853,108.1119,10.07,95,89,2.02,RU,1686501311
301,castillos,-34.1667,-53.8333,13.03,40,41,5.09,UY,1686501311
302,east london,-33.0153,27.9116,17.52,67,0,2.57,ZA,1686501311
303,chernyshevskiy,63.0128,112.4714,5.32,71,100,3.79,RU,1686501312
304,ballina,-28.8667,153.5667,11.55,88,1,2.53,AU,1686501312
305,gaspe,48.8334,-64.4819,22.12,46,40,4.12,CA,1686501242
306,kapuskasing,49.4169,-82.4331,9.05,61,75,2.06,CA,1686501088
307,port saint john's,-31.6229,29.5448,18.33,60,0,4.06,ZA,1686501313
308,kagizman,40.1567,43.1342,20.15,70,40,1.27,TR,1686501313
309,lata,40.1629,-8.3327,24.49,52,73,3.8,PT,1686501313
310,ambalangoda,6.2355,80.0538,27.47,85,98,5.02,LK,1686501313
311,kenai,60.5544,-151.2583,10.08,62,100,7.2,US,1686501270
312,dubbo,-32.25,148.6167,5.07,93,67,3.6,AU,1686501314
313,glenn heights,32.5488,-96.8567,32.59,67,0,4.12,US,1686501314
314,rio grande,-32.035,-52.0986,14.06,54,63,6.23,BR,1686501314
315,umluj,25.0213,37.2685,30.3,51,0,2.91,SA,1686501314
316,medina,24.4686,39.6142,38.24,12,0,6.69,SA,1686501153
317,hadibu,12.65,54.0333,28.74,77,91,7.26,YE,1686501314
318,illizi,26.4833,8.4667,43.89,5,0,8.3,DZ,1686501315
319,cockburn town,21.4612,-71.1419,28.06,84,9,7.56,TC,1686501159
320,coruripe,-10.1256,-36.1756,26.66,78,22,5.26,BR,1686501315
321,pudozh,61.8099,36.5345,13.84,53,38,2.52,RU,1686501315
322,portel,-1.9356,-50.8211,30.44,62,12,2.39,BR,1686501315
323,namtsy,62.7161,129.6658,17.09,96,100,1.68,RU,1686501315
324,darab,28.7519,54.5444,32.18,13,28,1.35,IR,1686501316
325,suva,-18.1416,178.4415,20.71,94,75,0.0,FJ,1686501316
326,nguigmi,14.2495,13.1092,29.93,58,79,5.07,NE,1686501316
327,mukalla,14.5425,49.1242,34.66,53,100,3.13,YE,1686501316
328,gonabad,34.3529,58.6837,32.04,18,0,0.0,IR,1686501317
329,bac lieu,9.285,105.7244,27.84,80,70,4.31,VN,1686501317
330,puerto aysen,-45.4,-72.7,5.52,99,100,1.99,CL,1686501317
331,auki,-8.7676,160.7034,25.23,87,14,1.51,SB,1686501317
332,chonchi,-42.6128,-73.8092,9.51,77,95,2.25,CL,1686501318
333,al kharj,24.155,47.3346,42.32,9,12,4.2,SA,1686501318
334,adam,22.3756,57.5233,33.26,35,38,6.69,OM,1686501100
335,uturoa,-16.7333,-151.4333,26.72,63,56,8.21,PF,1686501318
336,holualoa,19.6228,-155.9522,20.91,94,75,4.12,US,1686501318
337,bonanza,14.0289,-84.591,31.92,62,78,1.75,NI,1686501318
338,ponta delgada,37.7333,-25.6667,20.4,68,20,6.17,PT,1686501318
339,nagqu,31.5,92.0,5.89,62,92,4.31,CN,1686501319
340,pedernales,18.0384,-71.744,31.54,58,12,1.29,DO,1686501319
341,saint john,45.2727,-66.0677,20.57,52,40,4.63,CA,1686501319
342,havre,49.5833,0.3333,21.86,94,100,3.6,FR,1686501319
343,elmali,36.7358,29.9177,18.16,76,71,2.32,TR,1686501319
344,carnarvon,-24.8667,113.6333,17.83,65,0,9.32,AU,1686501319
345,sungai penuh,-2.0833,101.3833,18.13,98,25,1.06,ID,1686501320
346,bhadrakh,21.0528,86.52,33.74,53,83,3.15,IN,1686501320
347,alaior,39.9303,4.1404,24.86,69,20,3.6,ES,1686501320
348,miracema do tocantins,-9.5618,-48.3967,34.65,31,5,2.78,BR,1686501320
349,siwa oasis,29.2041,25.5195,33.88,22,53,5.68,EG,1686501320
350,touros,-5.1989,-35.4608,27.63,75,41,5.5,BR,1686501321
351,kannus,63.9,23.9,19.81,35,22,4.76,FI,1686501321
352,laojunmiao,39.8333,97.7333,19.69,25,26,1.89,CN,1686501321
353,selfoss,63.9331,-20.9971,14.47,67,70,7.14,IS,1686501321
354,robore,-18.3333,-59.75,20.07,95,44,3.61,BO,1686501321
355,belyy yar,53.6039,91.3903,13.94,77,0,2.0,RU,1686501322
356,uliastay,47.7417,96.8444,17.64,47,31,3.19,MN,1686501322
357,caraballeda,10.6112,-66.8522,32.98,64,55,6.17,VE,1686501322
358,olinda,-8.0089,-34.8553,23.85,94,100,1.03,BR,1686501175
359,abashiri,44.0213,144.2697,13.86,95,35,4.08,JP,1686501322
360,kalmunai,7.4167,81.8167,28.69,75,92,1.97,LK,1686501322
361,kasamwa,-2.85,32.4333,20.83,60,63,0.92,TZ,1686501322
362,vorkuta,67.5,64.0,2.7,75,100,9.85,RU,1686501323
363,taksimo,56.3444,114.8794,19.34,65,71,2.27,RU,1686501323
364,isola di capo rizzuto,38.96,17.0933,25.1,78,40,1.03,IT,1686501323
365,ceerigaabo,10.6162,47.368,23.71,43,80,5.07,SO,1686501323
366,asau,46.4333,26.4,21.51,90,81,3.24,RO,1686501323
367,la souterraine,46.2371,1.487,25.17,66,95,2.18,FR,1686501323
368,grootfontein,-19.5667,18.1167,20.06,20,0,4.35,NA,1686501324
369,mantua,45.1667,10.7833,29.58,58,21,2.31,IT,1686501324
370,tofol,5.3248,163.0078,27.93,80,27,8.22,FM,1686501324
371,ciudad lazaro cardenas,17.9583,-102.2,31.19,52,49,2.97,MX,1686501324
372,n'zeto,-7.2312,12.8666,23.1,85,97,2.54,AO,1686501324
373,constantia,44.1833,28.65,22.61,72,84,4.57,RO,1686501226
374,coquimbo,-29.9533,-71.3436,14.85,72,0,4.63,CL,1686501094
375,isafjordur,66.0755,-23.124,15.02,33,0,5.14,IS,1686501325
376,sale,34.0389,-6.8166,26.46,60,20,6.17,MA,1686501325
377,greymouth,-42.4667,171.2,7.06,92,60,1.69,NZ,1686501325
378,beykonak,36.3257,30.303,23.09,84,50,0.73,TR,1686501326
379,sanming,26.2486,117.6186,24.42,79,68,0.84,CN,1686501326
380,puerto deseado,-47.7503,-65.8938,5.39,57,9,15.04,AR,1686501326
381,gazojak,41.1875,61.4036,30.18,10,19,7.8,TM,1686501326
382,fort bragg,35.139,-79.006,31.78,40,40,4.12,US,1686501326
383,coxen hole,16.3244,-86.5366,31.6,74,40,4.12,HN,1686501327
384,ebon,4.582,168.6964,27.79,78,96,7.42,MH,1686501327
385,serenje,-13.2325,30.2352,15.63,56,21,1.95,ZM,1686501327
386,olyokminsk,60.3736,120.4264,15.75,85,100,6.09,RU,1686501327
387,zouerate,22.7187,-12.4521,35.98,17,0,6.91,MR,1686501327
388,mandalgovi,45.7625,106.2708,18.61,36,81,7.0,MN,1686501327
389,las khorey,11.1595,48.1967,34.07,51,59,1.68,SO,1686501328
390,eruh,37.7517,42.1811,28.46,37,77,2.25,TR,1686501328
391,carauari,-4.8828,-66.8958,31.64,59,52,1.25,BR,1686501329
392,aiquile,-18.2041,-65.1807,20.79,44,37,2.23,BO,1686501330
393,walvis bay,-22.9575,14.5053,14.53,82,10,6.17,NA,1686501330
394,kingston,17.997,-76.7936,32.91,68,20,9.26,JM,1686501074
395,caburan,5.9181,125.6411,26.77,82,81,1.7,PH,1686501330
396,trincomalee,8.5711,81.2335,28.46,74,29,8.78,LK,1686501330
397,prado,-17.3411,-39.2208,26.41,68,1,4.11,BR,1686501043
398,acapulco de juarez,16.8634,-99.8901,31.9,62,0,2.06,MX,1686501293
399,zyryanovsk,49.7386,84.2719,14.55,91,100,0.53,KZ,1686501331
400,birobidzhan,48.8,132.95,15.33,90,79,1.14,RU,1686501331
401,callao,-12.0667,-77.15,24.84,60,100,3.09,PE,1686501331
402,cabedelo,-6.9811,-34.8339,24.37,84,50,6.5,BR,1686501331
403,trujillo,-8.116,-79.03,23.98,78,75,6.69,PE,1686501275
404,tobelo,1.7284,128.0095,26.95,84,98,1.06,ID,1686501332
405,padre paraiso,-17.0742,-41.4844,28.08,39,23,1.75,BR,1686501332
406,victoria,22.2855,114.1577,30.67,84,95,3.58,HK,1686501109
407,hakui,36.8833,136.7833,19.89,93,100,1.49,JP,1686501332
408,ramhormoz,31.28,49.6035,39.17,11,1,3.12,IR,1686501332
409,palasa,18.7667,84.4167,31.96,52,64,3.61,IN,1686501333
410,freetown,8.484,-13.2299,23.84,94,75,2.06,SL,1686501333
411,argo,37.6333,22.7333,23.77,69,92,0.52,GR,1686501333
412,i-n-salah,27.1935,2.4607,43.63,5,0,6.29,DZ,1686501333
413,rasshevatskaya,45.5748,41.035,20.97,74,29,1.11,RU,1686501333
414,namibe,-15.1961,12.1522,20.42,69,2,4.79,AO,1686501333
415,maceio,-9.6658,-35.7353,28.69,69,40,5.66,BR,1686501325
416,pekanbaru,0.5333,101.45,26.06,86,88,1.16,ID,1686501334
417,kerikeri,-35.2268,173.9474,8.38,94,6,1.67,NZ,1686501334
418,champerico,14.3,-91.9167,31.3,73,90,2.44,GT,1686501334
419,ain sukhna,29.6002,32.3167,29.85,34,28,5.9,EG,1686501334
420,la ronge,55.1001,-105.2842,23.14,40,0,4.12,CA,1686501334
421,acarau,-2.8856,-40.12,29.92,65,12,7.41,BR,1686501334
422,vilyuchinsk,52.9306,158.4028,8.15,70,8,3.83,RU,1686501335
423,ta`u,-14.2336,-169.5144,27.64,78,87,6.27,AS,1686501335
424,monteros,-27.1674,-65.4983,15.93,25,51,3.05,AR,1686501335
425,recreo,-29.2818,-65.061,16.6,21,67,4.73,AR,1686501335
426,andalusia,31.3085,-86.4833,30.97,65,75,4.12,US,1686500805
427,tabou,4.423,-7.3528,25.47,84,100,5.1,CI,1686501335
428,rezekne,56.5,27.3167,15.51,55,5,3.14,LV,1686501336
429,christchurch,-43.5333,172.6333,6.08,88,48,3.09,NZ,1686500998
430,vila franca do campo,37.7167,-25.4333,20.23,61,97,3.41,PT,1686501336
431,kwang binh,17.4833,106.6,26.94,82,76,2.64,VN,1686501336
432,ardestan,33.3761,52.3694,26.91,34,63,1.63,IR,1686501336
433,kavaratti,10.5669,72.642,29.63,77,100,8.9,IN,1686501336
434,uray,60.1247,64.7758,7.78,53,59,6.02,RU,1686501336
435,kushiro,42.975,144.3747,12.44,99,100,1.88,JP,1686500790
436,soe,-9.8607,124.284,17.87,87,86,2.51,ID,1686501337
437,ginir,7.1333,40.7,16.19,83,88,3.22,ET,1686501337
438,sao joao da barra,-21.6403,-41.0511,30.05,57,0,2.93,BR,1686501337
439,saldanha,-33.0117,17.9442,13.03,93,100,3.33,ZA,1686501337
440,childress,34.4264,-100.204,28.84,47,0,4.12,US,1686501337
441,miyaly,48.8844,53.7836,28.09,21,97,4.79,KZ,1686501337
442,colonia,50.9333,6.95,31.06,28,0,3.6,DE,1686501337
443,urangan,-25.3,152.9,18.16,82,7,3.16,AU,1686501025
444,mildura,-34.2,142.15,9.48,83,100,4.1,AU,1686501092
445,fort stockton,30.894,-102.8793,34.53,16,0,3.09,US,1686501338
446,najaf,31.9985,44.3398,37.97,18,0,6.41,IQ,1686501338
447,shagonar,51.5333,92.8,15.32,93,85,1.33,RU,1686501338
448,nalut,30.3333,10.85,36.2,17,0,8.28,LY,1686501338
449,dryden,49.7833,-92.7503,18.16,39,0,3.6,CA,1686501338
450,tinsukia,27.5,95.3667,22.71,98,100,1.23,IN,1686501339
451,luderitz,-26.6481,15.1594,13.11,84,0,0.49,NA,1686501339
452,boca do acre,-8.7522,-67.3978,26.87,87,100,1.21,BR,1686501339
453,salalah,17.0151,54.0924,30.05,84,40,3.6,OM,1686501300
454,puerto lempira,15.2667,-83.7667,28.08,54,40,3.09,HN,1686501339
455,tvoroyri,61.5556,-6.8111,9.6,90,94,3.62,FO,1686501339
456,imbituba,-28.24,-48.6703,15.67,92,100,5.14,BR,1686501339
457,zaysan,47.4667,84.8667,16.23,86,99,2.71,KZ,1686501339
458,semenov,56.7875,44.493,11.67,62,77,1.77,RU,1686501196
459,kiruna,67.8557,20.2251,15.51,41,0,8.75,SE,1686501340
460,berezovyy,51.6667,135.7,12.11,90,34,1.46,RU,1686501340
461,sisimiut,66.9395,-53.6735,2.64,91,97,7.98,GL,1686501340
462,belgrade,44.804,20.4651,22.41,82,0,5.14,RS,1686501115
463,puerto baquerizo moreno,-0.9,-89.6,27.55,74,40,7.2,EC,1686501340
464,pemangkat,1.1667,108.9667,26.44,86,9,2.17,ID,1686501340
465,manavalakurichi,8.1333,77.3,27.8,80,84,6.99,IN,1686501341
466,kununurra,-15.7667,128.7333,17.99,88,7,0.0,AU,1686501341
467,vallegrande,-18.4897,-64.1069,16.43,80,88,1.88,BO,1686501341
468,cam ranh,11.9214,109.1591,29.98,74,20,1.03,VN,1686501341
469,zhigalovo,54.8097,105.1578,15.02,89,100,1.49,RU,1686501341
470,likiep,9.8251,169.3107,27.66,80,38,7.95,MH,1686501341
471,priargunsk,50.3691,119.1012,16.76,63,65,0.96,RU,1686501342
472,gao,16.6362,1.637,38.99,21,90,0.86,ML,1686501342
473,lusaka,-15.4067,28.2871,21.14,30,0,1.54,ZM,1686500945
474,buala,-8.145,159.5921,26.93,84,66,3.51,SB,1686501342
475,geraldton,-28.7667,114.6,13.23,76,100,0.0,AU,1686501279
476,damasak,13.0977,12.4952,34.33,37,97,2.83,NG,1686501342
477,nadym,65.5333,72.5167,8.95,57,70,5.82,RU,1686501342
478,porto novo,6.4965,2.6036,23.96,91,100,2.82,BJ,1686501342
479,carutapera,-1.195,-46.02,29.15,71,14,4.07,BR,1686501343
480,le port,-20.9373,55.2919,24.0,91,21,2.46,RE,1686501343
481,saint-pierre,-21.3393,55.4781,23.82,73,75,2.57,RE,1686501343
482,formosa do rio preto,-11.0483,-45.1931,34.08,27,0,2.92,BR,1686501343
483,bankim,6.083,11.4905,22.55,90,90,0.65,CM,1686501343
484,tommot,58.9564,126.2925,18.27,72,80,1.05,RU,1686501343
485,paragominas,-2.9667,-47.4833,28.59,79,12,2.15,BR,1686501343
486,lishui,28.4604,119.9103,22.76,92,99,0.71,CN,1686501343
487,port moresby,-9.4431,147.1797,24.68,88,20,3.6,PG,1686501343
488,beruniy,41.6911,60.7525,25.98,27,0,3.09,UZ,1686501344
489,severo-yeniseyskiy,60.3725,93.0408,5.53,64,0,1.83,RU,1686501344
490,carhaix-plouguer,48.2759,-3.5733,18.89,73,93,3.28,FR,1686501344
491,banda aceh,5.5577,95.3222,27.45,81,100,6.02,ID,1686501344
492,zaragoza,41.6561,-0.8773,24.25,56,40,4.12,ES,1686500908
493,zag,46.9441,99.165,17.09,50,61,1.66,MN,1686501345
494,pimentel,-6.8367,-79.9342,27.16,61,0,5.14,PE,1686501345
495,zeya,53.75,127.2667,17.04,68,73,1.67,RU,1686501345
496,camargo,27.6667,-105.1667,31.24,14,0,2.38,MX,1686501345
497,island harbour,50.724,-1.2758,22.39,89,92,0.89,GB,1686501346
498,oamaru,-45.0784,170.9801,7.58,76,96,1.88,NZ,1686501346
499,ust'-ilimsk,58.0006,102.6619,7.52,67,0,2.18,RU,1686501346
500,vilyuysk,63.7553,121.6247,11.08,68,93,5.08,RU,1686501346
501,paita,-5.0892,-81.1144,25.5,70,95,5.12,PE,1686501346
502,lompoc,34.6391,-120.4579,16.58,80,100,2.06,US,1686501346
503,chernyakhovsk,54.6335,21.8156,17.91,50,3,4.09,RU,1686501346
504,pangody,65.85,74.4859,8.49,71,32,3.81,RU,1686501346
505,bridgewater,44.3835,-64.5155,22.79,54,69,6.69,CA,1686501309
506,dabakala,8.3667,-4.4333,24.59,89,98,2.99,CI,1686501347
507,pinotepa nacional,16.3167,-98.0167,34.25,45,87,3.17,MX,1686501347
508,iranshahr,27.2025,60.6848,40.19,17,75,6.17,IR,1686501347
509,agat village,13.3886,144.6585,27.52,94,40,5.66,GU,1686501347
510,pallisa,1.145,33.7094,20.13,86,98,0.5,UG,1686501347
511,makueni boma,-1.8041,37.6203,19.38,53,55,1.3,KE,1686501347
512,shingu,33.7333,135.9833,20.9,98,100,0.1,JP,1686501347
513,okha,53.5739,142.9478,6.75,94,99,2.1,RU,1686501020
514,tubarjal,30.4999,38.216,32.1,20,1,3.87,SA,1686501348
515,sai buri,6.7013,101.6168,25.84,88,97,2.17,TH,1686501348
516,warman,52.3168,-106.5679,21.95,49,20,5.14,CA,1686501348
517,turpan,42.9333,89.1667,38.79,8,22,2.23,CN,1686501348
518,pedregal,8.3667,-82.4333,30.05,80,20,8.94,PA,1686501348
519,chililabombwe,-12.3648,27.8229,18.26,46,23,0.38,ZM,1686501348
520,as samawah,31.332,45.2944,39.97,15,0,4.26,IQ,1686501348
521,howard springs,-12.497,131.047,21.95,63,16,1.05,AU,1686501349
522,shchigry,51.8755,36.9043,13.9,82,100,8.32,RU,1686501335
523,kaiapoi,-43.3783,172.6401,6.16,90,46,3.09,NZ,1686501349
524,siluko,6.5386,5.1609,23.01,97,100,1.81,NG,1686501349
525,horsham,51.064,-0.3272,26.65,76,0,2.57,GB,1686501349
526,kourou,5.1552,-52.6478,31.03,72,100,3.26,GF,1686501349
527,peniche,39.3558,-9.3811,24.49,81,43,4.8,PT,1686501221
528,corbeni,45.3,24.65,15.74,94,86,1.85,RO,1686501349
529,ellsworth,44.5434,-68.4195,24.74,54,0,2.06,US,1686501199
530,emerald,-23.5333,148.1667,14.21,75,18,2.77,AU,1686501350
531,tsiombe,-25.3,45.4833,18.49,88,28,2.41,MG,1686501350
532,alice springs,-23.7,133.8833,13.75,72,100,0.51,AU,1686501350
533,trinity beach,-16.7888,145.6968,20.94,88,23,5.14,AU,1686501350
534,muisne,0.6,-80.0333,28.05,76,81,2.68,EC,1686501350
535,adiake,5.2863,-3.304,25.7,83,99,4.4,CI,1686501350
536,esquel,-42.9,-71.3167,1.14,87,45,2.33,AR,1686501350
537,fedorovka,53.6314,62.7078,12.8,77,73,4.41,KZ,1686501351
538,semnan,35.5729,53.3971,26.29,39,96,2.86,IR,1686501352
539,dobroye,52.8678,39.8109,15.98,54,100,6.25,RU,1686501352
540,haimen,23.1935,116.6142,27.94,91,80,1.52,CN,1686501352
541,opuwo,-18.0607,13.84,21.37,29,0,4.98,NA,1686501353
542,sona,45.4388,10.8255,28.75,50,20,1.54,IT,1686501188
543,parnu,58.3859,24.4971,20.05,32,6,1.54,EE,1686501353
544,mana,5.6592,-53.7767,28.62,77,78,3.41,GF,1686501353
545,shimoda,34.6667,138.95,21.17,94,100,0.35,JP,1686501353
546,ojinaga,29.5667,-104.4167,37.54,22,0,2.57,MX,1686501353
547,mugia,43.1041,-9.2179,22.31,82,100,4.0,ES,1686501353
548,sturgeon bay,44.8342,-87.377,11.99,82,100,7.2,US,1686501354
549,changzhi,35.2089,111.7386,18.95,82,5,1.35,CN,1686501354
550,barranca,-10.75,-77.7667,22.73,68,88,4.93,PE,1686501279
551,san luis de la loma,17.2706,-100.8939,31.7,56,77,3.23,MX,1686501354
552,leh,34.1667,77.5833,11.9,55,99,0.47,IN,1686501348
553,jaisalmer,26.9147,70.9181,36.11,31,1,8.19,IN,1686501354
554,qarauyl,48.9451,79.255,14.21,48,3,4.86,KZ,1686501354
555,karlskrona,56.1616,15.5866,19.25,51,2,5.53,SE,1686501354
556,kristinestad,62.2743,21.376,17.83,56,23,6.06,FI,1686501355
557,meadow lakes,61.6247,-149.6011,11.62,57,0,4.12,US,1686501355
558,yanykurgan,43.915,67.2481,29.57,18,83,8.35,KZ,1686501355
559,afif,23.9065,42.9172,34.85,15,3,3.33,SA,1686501355
560,westport,41.1415,-73.3579,29.36,60,0,3.6,US,1686501355
561,seguela,7.9611,-6.6731,26.51,76,93,3.42,CI,1686501355
562,rikaze,29.25,88.8833,16.23,38,97,1.91,CN,1686501355
563,moses lake,47.1301,-119.2781,21.38,64,0,1.54,US,1686501356
564,ostersund,63.1792,14.6357,22.25,30,0,1.54,SE,1686501356
565,san mariano,7.5,126.0,22.93,95,85,0.86,PH,1686501356
566,purranque,-40.9167,-73.1667,7.93,81,70,2.04,CL,1686501356
567,quiruvilca,-7.9667,-78.2,10.02,60,32,3.51,PE,1686501356
568,jimma,7.6667,36.8333,16.0,93,100,0.53,ET,1686501356
569,prince rupert,54.3161,-130.3201,11.05,87,100,1.03,CA,1686501356
